{"data":[{"id":1,"category":"real_estate","title":"Steak House Restaurant","location":"63 Birch Street","latitude":51.541599,"longitude":-0.112588,"url":"item-detail.html","type":"Apartment","type_icon":"assets/icons/store/apparel/umbrella-2.png","rating":4,"gallery":["assets/img/items/1.jpg","assets/img/items/5.jpg","assets/img/items/4.jpg"],"features":["Free Parking","Cards Accepted","Wi-Fi","Air Condition","Reservations","Teambuildings","Places to seat"],"date_created":"2014-11-03","price":"$2500","featured":0,"color":"","person_id":1,"year":1980,"special_offer":0,"item_specific":{"bedrooms":2,"bathrooms":2,"rooms":4,"garages":1,"area":240},"description":"Curabitur odio nibh, luctus non pulvinar a, ultricies ac diam. Donec neque massa, viverra interdum eros ut, imperdiet pellentesque mauris. Proin sit amet scelerisque risus. Donec semper semper erat ut mollis. Curabitur suscipit, justo eu dignissim lacinia, ante sapien pharetra duin consectetur eros augue sed ex. Donec a odio rutrum, hendrerit sapien vitae, euismod arcu.","last_review":"Curabitur odio nibh, luctus non pulvinar a, ultricies ac diam. Donec neque massa, viverra interdum eros ut, imperdiet","last_review_rating":5},{"id":2,"category":"bar_restaurant","title":"Blue Chilli","location":"1882 Trainer Avenue","latitude":51.538395,"longitude":-0.097418,"url":"item-detail.html","type":"Restaurant","type_icon":"assets/icons/store/apparel/bags.png","rating":5,"price":"$120","gallery":["assets/img/items/2.jpg"],"color":"","item_specific":{"menu":"$6.50","offer1":"Chicken wings","offer1_price":"4.50","offer2":"Mushroom ragout","offer2_price":"3.60","offer3":"Nice salad with tuna, beans and hard-boiled egg","offer3_price":"1.20"}},{"id":3,"title":"Eddie’s Fast Food","category":"real_estate","location":"1882 Trainer Avenue","latitude":51.551489,"longitude":-0.067077,"url":"item-detail.html","type":"Restaurant","type_icon":"assets/icons/store/apparel/clothers_male.png","rating":2,"gallery":["assets/img/items/3.jpg"],"color":""},{"id":4,"title":"Saguaro Tavern","location":"1882 Trainer Avenue","latitude":51.539212,"longitude":-0.118403,"url":"item-detail.html","type":"Restaurant","type_icon":"assets/icons/store/apparel/shoes.png","rating":0,"gallery":["assets/img/items/4.jpg"],"color":""},{"id":5,"title":"Max Five Lounge","location":"1882 Trainer Avenue","latitude":51.52234,"longitude":-0.037894,"url":"item-detail.html","type":"Restaurant","type_icon":"assets/icons/store/apparel/tailor.png","rating":4,"gallery":["assets/img/items/5.jpg"],"color":""},{"id":6,"title":"Lavadome","location":"1882 Trainer Avenue","latitude":51.503965,"longitude":-0.058837,"url":"item-detail.html","type":"Restaurant","type_icon":"assets/icons/store/apparel/umbrella-2.png","rating":5,"gallery":["assets/img/items/6.jpg"],"color":""},{"id":7,"title":"Café Roosterville Kitchen","location":"1882 Trainer Avenue","latitude":51.486758,"longitude":-0.112739,"url":"item-detail.html","type":"Restaurant","type_icon":"assets/icons/store/computers-electronics/videogames.png","rating":4,"gallery":["assets/img/items/7.jpg"],"color":""},{"id":8,"title":"Magma Bar and Grill","location":"1882 Trainer Avenue","latitude":51.555385,"longitude":-0.128274,"url":"item-detail.html","type":"Restaurant","type_icon":"assets/icons/store/apparel/bags.png","rating":4,"featured":0,"gallery":["assets/img/items/2.jpg"],"color":""},{"id":9,"title":"Guilt Trattoria","location":"1882 Trainer Avenue","latitude":51.560935,"longitude":-0.111365,"url":"item-detail.html","type":"Restaurant","type_icon":"assets/icons/store/apparel/bags.png","rating":4,"gallery":["assets/img/items/5.jpg"],"color":""},{"id":10,"title":"Hot Dogma","location":"1882 Trainer Avenue","latitude":51.530189,"longitude":-0.07875,"url":"item-detail.html","type":"Restaurant","type_icon":"assets/icons/store/apparel/bags.png","rating":4,"gallery":["assets/img/items/1.jpg"],"color":""},{"id":11,"title":"Roadhouse Cantina","location":"1882 Trainer Avenue","latitude":51.543803,"longitude":-0.036607,"url":"item-detail.html","type":"Restaurant","type_icon":"assets/icons/store/apparel/bags.png","rating":4,"featured":0,"gallery":["assets/img/items/3.jpg"],"color":""},{"id":12,"title":"Jetstream","location":"1882 Trainer Avenue","latitude":51.518334,"longitude":-0.125012,"url":"item-detail.html","type":"Restaurant","type_icon":"assets/icons/store/apparel/bags.png","rating":4,"gallery":["assets/img/items/6.jpg"],"color":""},{"id":13,"title":"Benephisto Tavern","location":"1882 Trainer Avenue","latitude":51.527306,"longitude":-0.140977,"url":"item-detail.html","type":"Restaurant","type_icon":"assets/icons/store/apparel/bags.png","rating":4,"gallery":["assets/img/items/2.jpg"],"color":""},{"id":14,"title":"Benephisto Tavern","location":"1882 Trainer Avenue","latitude":51.545244,"longitude":-0.070939,"url":"item-detail.html","type":"Restaurant","type_icon":"assets/icons/store/computers-electronics/computers.png","rating":4,"gallery":["assets/img/items/5.jpg"],"color":""},{"id":15,"title":"Benephisto Tavern","location":"1882 Trainer Avenue","latitude":51.558907,"longitude":-0.041842,"url":"item-detail.html","type":"Restaurant","type_icon":"assets/icons/store/computers-electronics/videogames.png","rating":4,"gallery":["assets/img/items/5.jpg"],"color":""},{"id":16,"title":"Café Goat and Guru","location":"2194 Thrash Trail","latitude":51.551026,"longitude":-0.102321,"url":"item-detail.html","type":"Restaurant / Grill & Steak","type_icon":"assets/icons/store/computers-electronics/videogames.png","rating":4,"gallery":["assets/img/items/restaurant/4.jpg"],"color":""},{"id":17,"title":"Socrates Cantina","location":"143 Young Road","latitude":51.550644,"longitude":-0.103493,"url":"item-detail.html","type":"Restaurant / Grill & Steak","type_icon":"assets/icons/store/computers-electronics/videogames.png","rating":4,"gallery":["assets/img/items/restaurant/8.jpg"],"color":""},{"id":18,"title":"Deja Brew Café","location":"2469 Hartway Street","latitude":51.532112,"longitude":-0.051885,"url":"item-detail.html","type":"Restaurant / Coffee","type_icon":"assets/icons/store/computers-electronics/videogames.png","rating":4,"gallery":["assets/img/items/restaurant/9.jpg"],"color":""},{"id":19,"title":"Deja Brew Café","location":"1087 Massachusetts Avenue","latitude":51.531364,"longitude":-0.054545,"url":"item-detail.html","type":"Restaurant / Coffee","type_icon":"assets/icons/store/computers-electronics/videogames.png","rating":4,"gallery":["assets/img/items/restaurant/10.jpg"],"color":""},{"id":20,"title":"Blue Horizon Grill","location":"684 Cambridge Place","latitude":51.531311,"longitude":-0.052314,"url":"item-detail.html","type":"Restaurant / Grill","type_icon":"assets/icons/store/computers-electronics/videogames.png","rating":4,"gallery":["assets/img/items/restaurant/11.jpg"],"color":""},{"id":21,"category":"real_estate","title":"Steak House Restaurant666","location":"63 Birch Street","latitude":51.530189,"longitude":-0.07875,"url":"item-detail.html","type":"Apartment","type_icon":"assets/icons/store/apparel/umbrella-2.png","rating":4,"gallery":["assets/img/items/4.jpg"],"item_specific":{"bedrooms":2,"bathrooms":2,"rooms":4,"garages":1,"area":240}},{"id":22,"category":"real_estate","title":"Another same position","location":"63 Birch Street","latitude":51.530189,"longitude":-0.07875,"url":"item-detail.html","type":"Apartment","type_icon":"assets/icons/store/apparel/umbrella-2.png","rating":4,"gallery":["assets/img/items/3.jpg"],"item_specific":{"bedrooms":2,"bathrooms":1,"rooms":3,"area":153}},{"id":23,"category":"bar_restaurant","title":"Hamburguesas María por ti","location":"84147 Villa Hidalgo","latitude":"51.54062340177117","longitude":"-0.09595870971679688","url":"item-detail.html","type":"Restaurant","type_icon":"assets/icons/store/apparel/bags.png","rating":5,"price":"145","gallery":["assets/img/users/580baf518b6a0c9018f8d933-starbucks.jpg"],"color":"","item_specific":{"menu":"$6.50","offer1":"Chicken wings","offer1_price":"4.50","offer2":"Mushroom ragout","offer2_price":"3.60","offer3":"Nice salad with tuna, beans and hard-boiled egg","offer3_price":"1.20"},"oferta":{"titulo":"claroh","precio":"145","descripcion:":"yep"}},{"id":24,"category":"bar_restaurant","title":"Pingyburguers","location":"123 Hermosillo","latitude":"51.54281206119232","longitude":"-0.11715888977050781","url":"item-detail.html","type":"Restaurant","type_icon":"assets/icons/store/apparel/bags.png","rating":5,"price":"150","gallery":["assets/img/users/580baf518b6a0c9018f8d933-hi.png"],"color":"","item_specific":{"menu":"$6.50","offer1":"Chicken wings","offer1_price":"4.50","offer2":"Mushroom ragout","offer2_price":"3.60","offer3":"Nice salad with tuna, beans and hard-boiled egg","offer3_price":"1.20"},"oferta":{"titulo":"title","precio":"150","descripcion:":"Holo"}},{"id":25,"category":"bar_restaurant","title":"ChatoBurguers","location":"69420 Chato Street","latitude":"51.536459320055805","longitude":"-0.07870674133300781","url":"item-detail.html","type":"Restaurant","type_icon":"assets/icons/store/apparel/bags.png","rating":5,"price":"123","gallery":["assets/img/users/580baf518b6a0c9018f8d933-BigData.001.jpg"],"color":"","item_specific":{"menu":"$6.50","offer1":"Chicken wings","offer1_price":"4.50","offer2":"Mushroom ragout","offer2_price":"3.60","offer3":"Nice salad with tuna, beans and hard-boiled egg","offer3_price":"1.20"},"oferta":{"titulo":"123123","precio":"123","descripcion:":"5253252"}},{"id":26,"category":"bar_restaurant","title":"los memes del rolando","location":"123 232323","latitude":"51.54665530593064","longitude":"-0.10291099548339844","url":"item-detail.html","type":"Restaurant","type_icon":"assets/icons/store/apparel/bags.png","rating":5,"price":"222","gallery":["assets/img/users/580baf518b6a0c9018f8d933-applccns.png"],"color":"","item_specific":{"menu":"$6.50","offer1":"Chicken wings","offer1_price":"4.50","offer2":"Mushroom ragout","offer2_price":"3.60","offer3":"Nice salad with tuna, beans and hard-boiled egg","offer3_price":"1.20"},"oferta":{"titulo":"222","precio":"222","descripcion:":""}},{"id":27,"category":"bar_restaurant","title":"Bebidas de Hermosillo","location":"123 ytttrr","latitude":"29.105189090253663","longitude":"-110.96620559692383","url":"item-detail.html","type":"Restaurant","type_icon":"assets/icons/store/apparel/bags.png","rating":5,"price":"420","gallery":["assets/img/users/580baf518b6a0c9018f8d933-starbucks.jpg"],"color":"","item_specific":{"menu":"$6.50","offer1":"Chicken wings","offer1_price":"4.50","offer2":"Mushroom ragout","offer2_price":"3.60","offer3":"Nice salad with tuna, beans and hard-boiled egg","offer3_price":"1.20"},"oferta":{"titulo":"pingy","precio":"420","descripcion:":"pingy"}},{"id":28,"category":"bar_restaurant","title":"Pizzas de Hermosillo","location":"1234 ","latitude":"29.09892701009287","longitude":"-110.9670639038086","url":"item-detail.html","type":"Restaurant","type_icon":"assets/icons/store/apparel/bags.png","rating":5,"price":"","gallery":["assets/img/users/580baf518b6a0c9018f8d933-pizza.png"],"color":"","item_specific":{"menu":"$6.50","offer1":"Chicken wings","offer1_price":"4.50","offer2":"Mushroom ragout","offer2_price":"3.60","offer3":"Nice salad with tuna, beans and hard-boiled egg","offer3_price":"1.20"},"oferta":{"titulo":"","precio":"","descripcion:":""}},{"id":29,"category":"bar_restaurant","title":"Hamburguesas De Hermosillo","location":"456 Calle","latitude":"29.092777051650614","longitude":"-110.97084045410156","url":"item-detail.html","type":"Restaurant","type_icon":"assets/icons/store/apparel/bags.png","rating":5,"price":"","gallery":["assets/img/users/580baf518b6a0c9018f8d933-hambur.png"],"color":"","item_specific":{"menu":"$6.50","offer1":"Chicken wings","offer1_price":"4.50","offer2":"Mushroom ragout","offer2_price":"3.60","offer3":"Nice salad with tuna, beans and hard-boiled egg","offer3_price":"1.20"},"oferta":{"titulo":"","precio":"","descripcion:":""}},{"id":30,"category":"bar_restaurant","title":"Dogos de Hermosillo","location":"456 ","latitude":"29.081676196893135","longitude":"-110.95230102539062","url":"item-detail.html","type":"Restaurant","type_icon":"assets/icons/store/apparel/bags.png","rating":5,"price":"","gallery":["assets/img/users/580baf518b6a0c9018f8d933-dogos.png"],"color":"","item_specific":{"menu":"$6.50","offer1":"Chicken wings","offer1_price":"4.50","offer2":"Mushroom ragout","offer2_price":"3.60","offer3":"Nice salad with tuna, beans and hard-boiled egg","offer3_price":"1.20"},"oferta":{"titulo":"","precio":"","descripcion:":""}}]}
