{"data": [{"rating": 4, "special_offer": 0, "features": ["Free Parking", "Cards Accepted", "Wi-Fi", "Air Condition", "Reservations", "Teambuildings", "Places to seat"], "color": "", "featured": 0, "year": 1980, "id": 1, "category": "real_estate", "title": "Steak House Restaurant", "location": "63 Birch Street", "person_id": 1, "type": "Apartment", "item_specific": {"garages": 1, "bedrooms": 2, "bathrooms": 2, "rooms": 4, "area": 240}, "description": "Curabitur odio nibh, luctus non pulvinar a, ultricies ac diam. Donec neque massa, viverra interdum eros ut, imperdiet pellentesque mauris. Proin sit amet scelerisque risus. Donec semper semper erat ut mollis. Curabitur suscipit, justo eu dignissim lacinia, ante sapien pharetra duin consectetur eros augue sed ex. Donec a odio rutrum, hendrerit sapien vitae, euismod arcu.", "type_icon": "assets/icons/store/apparel/umbrella-2.png", "price": "$2500", "last_review_rating": 5, "latitude": 51.541599, "last_review": "Curabitur odio nibh, luctus non pulvinar a, ultricies ac diam. Donec neque massa, viverra interdum eros ut, imperdiet", "gallery": ["assets/img/items/1.jpg", "assets/img/items/5.jpg", "assets/img/items/4.jpg"], "url": "item-detail.html", "longitude": -0.112588, "date_created": "2014-11-03"}, {"category": "bar_restaurant", "rating": 5, "title": "Blue Chilli", "url": "item-detail.html", "type_icon": "assets/icons/store/apparel/bags.png", "price": "$120", "longitude": -0.097418, "gallery": ["assets/img/items/2.jpg"], "color": "", "location": "1882 Trainer Avenue", "latitude": 51.538395, "type": "Restaurant", "id": 2, "item_specific": {"offer3_price": "1.20", "offer2_price": "3.60", "menu": "$6.50", "offer1": "Chicken wings", "offer2": "Mushroom ragout", "offer3": "Nice salad with tuna, beans and hard-boiled egg", "offer1_price": "4.50"}}, {"category": "real_estate", "rating": 2, "title": "Eddie\u2019s Fast Food", "url": "item-detail.html", "type_icon": "assets/icons/store/apparel/clothers_male.png", "longitude": -0.067077, "gallery": ["assets/img/items/3.jpg"], "color": "", "location": "1882 Trainer Avenue", "latitude": 51.551489, "type": "Restaurant", "id": 3}, {"rating": 0, "title": "Saguaro Tavern", "url": "item-detail.html", "type_icon": "assets/icons/store/apparel/shoes.png", "longitude": -0.118403, "gallery": ["assets/img/items/4.jpg"], "color": "", "location": "1882 Trainer Avenue", "latitude": 51.539212, "type": "Restaurant", "id": 4}, {"rating": 4, "title": "Max Five Lounge", "url": "item-detail.html", "type_icon": "assets/icons/store/apparel/tailor.png", "longitude": -0.037894, "gallery": ["assets/img/items/5.jpg"], "color": "", "location": "1882 Trainer Avenue", "latitude": 51.52234, "type": "Restaurant", "id": 5}, {"rating": 5, "title": "Lavadome", "url": "item-detail.html", "type_icon": "assets/icons/store/apparel/umbrella-2.png", "longitude": -0.058837, "gallery": ["assets/img/items/6.jpg"], "color": "", "location": "1882 Trainer Avenue", "latitude": 51.503965, "type": "Restaurant", "id": 6}, {"rating": 4, "title": "Caf\u00e9 Roosterville Kitchen", "url": "item-detail.html", "type_icon": "assets/icons/store/computers-electronics/videogames.png", "longitude": -0.112739, "gallery": ["assets/img/items/7.jpg"], "color": "", "location": "1882 Trainer Avenue", "latitude": 51.486758, "type": "Restaurant", "id": 7}, {"rating": 4, "title": "Magma Bar and Grill", "url": "item-detail.html", "type_icon": "assets/icons/store/apparel/bags.png", "longitude": -0.128274, "gallery": ["assets/img/items/2.jpg"], "color": "", "featured": 0, "location": "1882 Trainer Avenue", "latitude": 51.555385, "type": "Restaurant", "id": 8}, {"rating": 4, "title": "Guilt Trattoria", "url": "item-detail.html", "type_icon": "assets/icons/store/apparel/bags.png", "longitude": -0.111365, "gallery": ["assets/img/items/5.jpg"], "color": "", "location": "1882 Trainer Avenue", "latitude": 51.560935, "type": "Restaurant", "id": 9}, {"rating": 4, "title": "Hot Dogma", "url": "item-detail.html", "type_icon": "assets/icons/store/apparel/bags.png", "longitude": -0.07875, "gallery": ["assets/img/items/1.jpg"], "color": "", "location": "1882 Trainer Avenue", "latitude": 51.530189, "type": "Restaurant", "id": 10}, {"rating": 4, "title": "Roadhouse Cantina", "url": "item-detail.html", "type_icon": "assets/icons/store/apparel/bags.png", "longitude": -0.036607, "gallery": ["assets/img/items/3.jpg"], "color": "", "featured": 0, "location": "1882 Trainer Avenue", "latitude": 51.543803, "type": "Restaurant", "id": 11}, {"rating": 4, "title": "Jetstream", "url": "item-detail.html", "type_icon": "assets/icons/store/apparel/bags.png", "longitude": -0.125012, "gallery": ["assets/img/items/6.jpg"], "color": "", "location": "1882 Trainer Avenue", "latitude": 51.518334, "type": "Restaurant", "id": 12}, {"rating": 4, "title": "Benephisto Tavern", "url": "item-detail.html", "type_icon": "assets/icons/store/apparel/bags.png", "longitude": -0.140977, "gallery": ["assets/img/items/2.jpg"], "color": "", "location": "1882 Trainer Avenue", "latitude": 51.527306, "type": "Restaurant", "id": 13}, {"rating": 4, "title": "Benephisto Tavern", "url": "item-detail.html", "type_icon": "assets/icons/store/computers-electronics/computers.png", "longitude": -0.070939, "gallery": ["assets/img/items/5.jpg"], "color": "", "location": "1882 Trainer Avenue", "latitude": 51.545244, "type": "Restaurant", "id": 14}, {"rating": 4, "title": "Benephisto Tavern", "url": "item-detail.html", "type_icon": "assets/icons/store/computers-electronics/videogames.png", "longitude": -0.041842, "gallery": ["assets/img/items/5.jpg"], "color": "", "location": "1882 Trainer Avenue", "latitude": 51.558907, "type": "Restaurant", "id": 15}, {"rating": 4, "title": "Caf\u00e9 Goat and Guru", "url": "item-detail.html", "type_icon": "assets/icons/store/computers-electronics/videogames.png", "longitude": -0.102321, "gallery": ["assets/img/items/restaurant/4.jpg"], "color": "", "location": "2194 Thrash Trail", "latitude": 51.551026, "type": "Restaurant / Grill & Steak", "id": 16}, {"rating": 4, "title": "Socrates Cantina", "url": "item-detail.html", "type_icon": "assets/icons/store/computers-electronics/videogames.png", "longitude": -0.103493, "gallery": ["assets/img/items/restaurant/8.jpg"], "color": "", "location": "143 Young Road", "latitude": 51.550644, "type": "Restaurant / Grill & Steak", "id": 17}, {"rating": 4, "title": "Deja Brew Caf\u00e9", "url": "item-detail.html", "type_icon": "assets/icons/store/computers-electronics/videogames.png", "longitude": -0.051885, "gallery": ["assets/img/items/restaurant/9.jpg"], "color": "", "location": "2469 Hartway Street", "latitude": 51.532112, "type": "Restaurant / Coffee", "id": 18}, {"rating": 4, "title": "Deja Brew Caf\u00e9", "url": "item-detail.html", "type_icon": "assets/icons/store/computers-electronics/videogames.png", "longitude": -0.054545, "gallery": ["assets/img/items/restaurant/10.jpg"], "color": "", "location": "1087 Massachusetts Avenue", "latitude": 51.531364, "type": "Restaurant / Coffee", "id": 19}, {"rating": 4, "title": "Blue Horizon Grill", "url": "item-detail.html", "type_icon": "assets/icons/store/computers-electronics/videogames.png", "longitude": -0.052314, "gallery": ["assets/img/items/restaurant/11.jpg"], "color": "", "location": "684 Cambridge Place", "latitude": 51.531311, "type": "Restaurant / Grill", "id": 20}, {"category": "real_estate", "rating": 4, "title": "Steak House Restaurant666", "url": "item-detail.html", "type_icon": "assets/icons/store/apparel/umbrella-2.png", "longitude": -0.07875, "gallery": ["assets/img/items/4.jpg"], "location": "63 Birch Street", "latitude": 51.530189, "type": "Apartment", "id": 21, "item_specific": {"garages": 1, "bedrooms": 2, "bathrooms": 2, "rooms": 4, "area": 240}}, {"category": "real_estate", "rating": 4, "title": "Another same position", "url": "item-detail.html", "type_icon": "assets/icons/store/apparel/umbrella-2.png", "longitude": -0.07875, "gallery": ["assets/img/items/3.jpg"], "location": "63 Birch Street", "latitude": 51.530189, "type": "Apartment", "id": 22, "item_specific": {"bedrooms": 2, "bathrooms": 1, "rooms": 3, "area": 153}}, {"category": "bar_restaurant", "rating": 5, "title": "Hamburguesas Mar\u00eda por ti", "url": "item-detail.html", "type_icon": "assets/icons/store/apparel/bags.png", "price": "145", "oferta": {"titulo": "claroh", "precio": "145", "descripcion:": "yep"}, "longitude": "-0.09595870971679688", "gallery": ["assets/img/users/580baf518b6a0c9018f8d933-starbucks.jpg"], "color": "", "location": "84147 Villa Hidalgo", "latitude": "51.54062340177117", "type": "Restaurant", "id": 23, "item_specific": {"offer3_price": "1.20", "offer2_price": "3.60", "menu": "$6.50", "offer1": "Chicken wings", "offer2": "Mushroom ragout", "offer3": "Nice salad with tuna, beans and hard-boiled egg", "offer1_price": "4.50"}}, {"category": "bar_restaurant", "rating": 5, "title": "Pingyburguers", "url": "item-detail.html", "type_icon": "assets/icons/store/apparel/bags.png", "price": "150", "oferta": {"titulo": "title", "precio": "150", "descripcion:": "Holo"}, "longitude": "-0.11715888977050781", "gallery": ["assets/img/users/580baf518b6a0c9018f8d933-hi.png"], "color": "", "location": "123 Hermosillo", "latitude": "51.54281206119232", "type": "Restaurant", "id": 24, "item_specific": {"offer3_price": "1.20", "offer2_price": "3.60", "menu": "$6.50", "offer1": "Chicken wings", "offer2": "Mushroom ragout", "offer3": "Nice salad with tuna, beans and hard-boiled egg", "offer1_price": "4.50"}}, {"category": "bar_restaurant", "rating": 5, "title": "ChatoBurguers", "url": "item-detail.html", "type_icon": "assets/icons/store/apparel/bags.png", "price": "123", "oferta": {"titulo": "123123", "precio": "123", "descripcion:": "5253252"}, "longitude": "-0.07870674133300781", "gallery": ["assets/img/users/580baf518b6a0c9018f8d933-BigData.001.jpg"], "color": "", "location": "69420 Chato Street", "latitude": "51.536459320055805", "type": "Restaurant", "id": 25, "item_specific": {"offer3_price": "1.20", "offer2_price": "3.60", "menu": "$6.50", "offer1": "Chicken wings", "offer2": "Mushroom ragout", "offer3": "Nice salad with tuna, beans and hard-boiled egg", "offer1_price": "4.50"}}, {"category": "bar_restaurant", "rating": 5, "title": "los memes del rolando", "url": "item-detail.html", "type_icon": "assets/icons/store/apparel/bags.png", "price": "222", "oferta": {"titulo": "222", "precio": "222", "descripcion:": ""}, "longitude": "-0.10291099548339844", "gallery": ["assets/img/users/580baf518b6a0c9018f8d933-applccns.png"], "color": "", "location": "123 232323", "latitude": "51.54665530593064", "type": "Restaurant", "id": 26, "item_specific": {"offer3_price": "1.20", "offer2_price": "3.60", "menu": "$6.50", "offer1": "Chicken wings", "offer2": "Mushroom ragout", "offer3": "Nice salad with tuna, beans and hard-boiled egg", "offer1_price": "4.50"}}, {"category": "bar_restaurant", "rating": 5, "title": "Bebidas de Hermosillo", "url": "item-detail.html", "type_icon": "assets/icons/store/apparel/bags.png", "price": "420", "oferta": {"titulo": "pingy", "precio": "420", "descripcion:": "pingy"}, "longitude": "-110.96620559692383", "gallery": ["assets/img/users/580baf518b6a0c9018f8d933-starbucks.jpg"], "color": "", "location": "123 ytttrr", "latitude": "29.105189090253663", "type": "Restaurant", "id": 27, "item_specific": {"offer3_price": "1.20", "offer2_price": "3.60", "menu": "$6.50", "offer1": "Chicken wings", "offer2": "Mushroom ragout", "offer3": "Nice salad with tuna, beans and hard-boiled egg", "offer1_price": "4.50"}}, {"category": "bar_restaurant", "rating": 5, "title": "Pizzas de Hermosillo", "url": "item-detail.html", "type_icon": "assets/icons/store/apparel/bags.png", "price": "", "oferta": {"titulo": "", "precio": "", "descripcion:": ""}, "longitude": "-110.9670639038086", "gallery": ["assets/img/users/580baf518b6a0c9018f8d933-pizza.png"], "color": "", "location": "1234 ", "latitude": "29.09892701009287", "type": "Restaurant", "id": 28, "item_specific": {"offer3_price": "1.20", "offer2_price": "3.60", "menu": "$6.50", "offer1": "Chicken wings", "offer2": "Mushroom ragout", "offer3": "Nice salad with tuna, beans and hard-boiled egg", "offer1_price": "4.50"}}, {"category": "bar_restaurant", "rating": 5, "title": "Hamburguesas De Hermosillo", "url": "item-detail.html", "type_icon": "assets/icons/store/apparel/bags.png", "price": "", "oferta": {"titulo": "", "precio": "", "descripcion:": ""}, "longitude": "-110.97084045410156", "gallery": ["assets/img/users/580baf518b6a0c9018f8d933-hambur.png"], "color": "", "location": "456 Calle", "latitude": "29.092777051650614", "type": "Restaurant", "id": 29, "item_specific": {"offer3_price": "1.20", "offer2_price": "3.60", "menu": "$6.50", "offer1": "Chicken wings", "offer2": "Mushroom ragout", "offer3": "Nice salad with tuna, beans and hard-boiled egg", "offer1_price": "4.50"}}, {"category": "bar_restaurant", "rating": 5, "title": "Dogos de Hermosillo", "url": "item-detail.html", "type_icon": "assets/icons/store/apparel/bags.png", "price": "", "oferta": {"titulo": "", "precio": "", "descripcion:": ""}, "longitude": "-110.95230102539062", "gallery": ["assets/img/users/580baf518b6a0c9018f8d933-dogos.png"], "color": "", "location": "456 ", "latitude": "29.081676196893135", "type": "Restaurant", "id": 30, "item_specific": {"offer3_price": "1.20", "offer2_price": "3.60", "menu": "$6.50", "offer1": "Chicken wings", "offer2": "Mushroom ragout", "offer3": "Nice salad with tuna, beans and hard-boiled egg", "offer1_price": "4.50"}}, {"category": "bar_restaurant", "rating": 5, "title": "Bebidas v2", "url": "/item-id-116101717213824", "type_icon": "assets/icons/store/apparel/bags.png", "price": "999123", "oferta": {"titulo": "La mejor oferta de todas, no te la pierdas yeaah", "precio": "999123", "descripcion:": "Mira mi oferta"}, "longitude": "-110.96354484558105", "gallery": ["assets/img/users/580baf518b6a0c9018f8d933-starbucks.jpg"], "latitude": "29.13446956872041", "link": "116101717213824", "location": "83141 La calle del sol", "owner": "580baf518b6a0c9018f8d933", "type": "Restaurant", "id": 32, "color": "", "item_specific": {"menu": "999123"}}, {"category": "bar_restaurant", "rating": 5, "title": "Dogos el parienet", "url": "/item-id-1161024165010537", "type_icon": "assets/icons/store/apparel/bags.png", "price": "15.99", "oferta": {"titulo": "oferta", "precio": "15.99", "descripcion:": "buenos dogos"}, "longitude": "-110.96002578735352", "gallery": ["assets/img/users/580baf518b6a0c9018f8d933-14972024_10211064356749550_505348913_n.png"], "latitude": "29.12944636586253", "link": "1161024165010537", "location": " ", "owner": "580baf518b6a0c9018f8d933", "type": "Restaurant", "id": 32, "color": "", "item_specific": {"menu": "15.99 mxn"}}, {"category": "bar_restaurant", "rating": 5, "title": "Pizzas el estudiambre", "url": "/item-id-1161024165119432", "type_icon": "assets/icons/store/apparel/bags.png", "price": "120", "oferta": {"titulo": "pizzas", "precio": "120", "descripcion:": "Miralaoferta"}, "longitude": "-110.95333099365234", "gallery": ["assets/img/users/580baf518b6a0c9018f8d933-15139246_10211064359829627_1571374161_n.png"], "latitude": "29.130421036354356", "link": "1161024165119432", "location": " ", "owner": "580baf518b6a0c9018f8d933", "type": "Restaurant", "id": 33, "color": "", "item_specific": {"menu": "120 mxn"}}, {"category": "bar_restaurant", "rating": 5, "title": "tacos la tracalera", "url": "/item-id-1161024165219392", "type_icon": "assets/icons/store/apparel/bags.png", "price": "15", "oferta": {"titulo": "Tacos", "precio": "15", "descripcion:": "Mira mis tacos"}, "longitude": "holo", "gallery": ["assets/img/users/580baf518b6a0c9018f8d933-15231525_10211064391670423_535329554_o.png"], "latitude": "holo", "link": "1161024165219392", "location": " ", "owner": "580baf518b6a0c9018f8d933", "type": "Restaurant", "id": 34, "color": "", "item_specific": {"menu": "15 mxn"}}, {"category": "bar_restaurant", "rating": 5, "title": "tacos la tracalera", "url": "/item-id-1161024165237632", "type_icon": "assets/icons/store/apparel/bags.png", "price": "15", "oferta": {"titulo": "Tacos", "precio": "15", "descripcion:": "Mira mis tacos"}, "longitude": "-110.96766471862793", "gallery": ["assets/img/users/580baf518b6a0c9018f8d933-15231525_10211064391670423_535329554_o.png"], "latitude": "29.130421036354356", "link": "1161024165237632", "location": " ", "owner": "580baf518b6a0c9018f8d933", "type": "Restaurant", "id": 35, "color": "", "item_specific": {"menu": "15 mxn"}}, {"category": "bar_restaurant", "rating": 5, "title": "Limonadas y Antojitos", "url": "/item-id-1161024165326364", "type_icon": "assets/icons/store/apparel/bags.png", "price": "8", "oferta": {"titulo": "Limonadas", "precio": "8", "descripcion:": "Limonadas"}, "longitude": "-110.95925331115723", "gallery": ["assets/img/users/580baf518b6a0c9018f8d933-15240152_10211064378430092_1311164993_n.png"], "latitude": "29.12592248007369", "link": "1161024165326364", "location": " ", "owner": "580baf518b6a0c9018f8d933", "type": "Restaurant", "id": 36, "color": "", "item_specific": {"menu": "8 mxn"}}]}